{
    "places": [
         {
            "title": "Средняя общеобразовательная школа №85",
            "description": "<div style=\"text-align:center; width: 250px;\">Режим работы : понедельник - суббота 8-19, без перерыва т.+7(39563)5-04-77 директор, секретарь, +7(39563)5-00-11 учительская, завуч </div>",
            "lat": 55.934277, 
            "lng": 98.022637,
            "icon":"imges/icon/school.png"
        },
        {
            "title": "Средняя общеобразовательная школа №14",
            "description": "<div style=\"text-align:center\"><img src=\"http://taishettoday.ru/imges/map/14.jpg\"/>Режим работы : понедельник - суббота 8-18.30, без перерыва т.+7(39563)5-06-40 (секретарь); +7(39563)5-06-65 (директор)</div>",
            "lat": 55.938438, 
            "lng": 98.008145,
            "icon":"imges/icon/school.png"
        },
        {
            "title": "Средняя общеобразовательная школа №5",
            "description": "<div style=\"text-align:center\">Режим работы:понедельник - суббота 8-17 , перерыв 12-13 т.+7(39563)2-10-28 приемная (тел.факс) +7(39563)2-13-60 учительская +7(39563)2-22-16 бухгалтерия </div>",
            "lat": 55.940055,
            "lng": 98.031145,
            "icon":"imges/icon/school.png"
        },
        {
            "title": "Средняя общеобразовательная школа №23",
            "description": "<div style=\"text-align:center; width: 250px;\">Режим работы: понедельник - суббота 8-19, без перерыва т.+7(39563)2-10-64 приемная</div>",
            "lat": 55.952541,
            "lng": 97.993686,
            "icon":"imges/icon/school.png"
        },
        {
            "title": "Средняя общеобразовательная школа №2",
            "description": "<div style=\"text-align:center\">Режим работы: понедельник - пятница 7-19, перерыв 12-13 суббота 7-13 , без перерыва +7(39563)2-59-93 приемная  +7(39563)2-57-28 директор(тел./факс)</div>",
            "lat": 55.924550,
            "lng": 98.007080,
            "icon":"imges/icon/school.png"
        },
        {
            "title": "Тайшетская детская художественная школа",
            "description": "<div style=\"text-align:center\">Режим работы:понедельник - пятница 8.30-20, перерыв 12-14, т.+7(39563)2-09-38</div>",
            "lat": 55.944128, 
            "lng": 98.026993,
            "icon":"imges/icon/school.png"
        },
        {
            "title": "Тайшетская музыкальная школа №1",
            "description": "<div style=\"text-align:center\">Режим работы : понедельник - пятница 8-18, перерыв 12-13, +7(39563)2-42-39 вахта +7(39563)2-60-13 директор</div>",
            "lat": 55.934297, 
            "lng": 97.987515,
            "icon":"imges/icon/school.png"
        },
         {
            "title": "Средняя общеобразовательная школа №1",
            "description": "<div style=\"text-align:center\">Режим работы : понедельник - суббота 8-18.10, перерыв 12.50-13.20, +7(39563)2-44-41 директор, +7(39563)2-46-09 учительская </div>",
            "lat": 55.937640, 
            "lng": 97.985560,
            "icon":"imges/icon/school.png"
        },
        {
            "title": "Школа интернат №24",
            "description": "<div style=\"text-align:center\">Режим работы : понедельник - пятница 8-17 , без перерыва, +7(39563)5-05-89 директор, +7(39563)5-42-70 учительская</div>",
            "lat": 55.938390, 
            "lng": 98.024213,
            "icon":"imges/icon/school.png"
        },
        {
            "title": "Языковой центр Grand EL",
            "description": "<div style=\"text-align:center\"><img src=\"http://taishettoday.ru/imges/map/english_map.jpg\"/><br>Режим работы : понедельник - пятница 9.00-21.00, суббота 10.00 - 17.00<br>тел.89246145958</div>",
            "lat": 55.936529, 
            "lng": 98.018612,
            "icon":"imges/icon/school.png"
        },
        {
            "title": "Центр обучения умный ребенок",
            "description": "<div style=\"text-align:center\"><img src=\"http://taishettoday.ru/imges/map/rebenok_map.jpg\"/><br>тел.2-36-88, 8-914-898-25-26<br>Адрес: ул. Бурлова 1</div>",
            "lat": 55.932112,  
            "lng": 98.028212,
            "icon":"imges/icon/school.png"
        }               
    ]
}